[
  {
    "iataCode": "NBO",
    "name": "Jomo Kenyatta International Airport",
    "city": "Nairobi",
    "state": "Nairobi County",
    "country": "Kenya",
    "latitude": -1.319167,
    "longitude": 36.9275,
    "timezone": "Africa/Nairobi",
    "facilities": [
      "Free Wi-Fi",
      "Lounges",
      "Car Rentals",
      "Restaurants",
      "Duty-Free Shops",
      "Baggage Claim"
    ],
    "_id": "NBO"
  },
  {
    "iataCode": "MBA",
    "name": "Moi International Airport",
    "city": "Mombasa",
    "state": "Mombasa County",
    "country": "Kenya",
    "latitude": -4.034833,
    "longitude": 39.59425,
    "timezone": "Africa/Nairobi",
    "facilities": [
      "Free Wi-Fi",
      "Car Rentals",
      "Restaurants",
      "Duty-Free Shops",
      "Lounges",
      "Taxi Services"
    ],
    "_id": "MBA"
  },
  {
    "iataCode": "KIS",
    "name": "Kisumu International Airport",
    "city": "Kisumu",
    "state": "Kisumu County",
    "country": "Kenya",
    "latitude": -0.086139,
    "longitude": 34.728889,
    "timezone": "Africa/Nairobi",
    "facilities": [
      "Wi-Fi",
      "Car Hire",
      "Food Courts",
      "Lounges",
      "Baggage Claim",
      "Parking"
    ],
    "_id": "KIS"
  },
  {
    "iataCode": "LOS",
    "name": "Murtala Muhammed International Airport",
    "city": "Lagos",
    "state": "Lagos",
    "country": "Nigeria",
    "latitude": 6.57737,
    "longitude": 3.32116,
    "timezone": "Africa/Lagos",
    "facilities": [
      "Free Wi-Fi",
      "Lounges",
      "Restaurants",
      "Duty-Free Shops",
      "Taxi Services",
      "Car Rentals"
    ],
    "_id": "LOS"
  },
  {
    "iataCode": "ABV",
    "name": "Nnamdi Azikiwe International Airport",
    "city": "Abuja",
    "state": "Federal Capital Territory",
    "country": "Nigeria",
    "latitude": 9.006792,
    "longitude": 7.263172,
    "timezone": "Africa/Lagos",
    "facilities": [
      "Wi-Fi",
      "VIP Lounge",
      "Restaurants",
      "Baggage Claim",
      "Car Rentals",
      "Shops"
    ],
    "_id": "ABV"
  },
  {
    "iataCode": "PHC",
    "name": "Port Harcourt International Airport",
    "city": "Port Harcourt",
    "state": "Rivers State",
    "country": "Nigeria",
    "latitude": 5.015494,
    "longitude": 6.949594,
    "timezone": "Africa/Lagos",
    "facilities": [
      "Wi-Fi",
      "Restaurants",
      "Car Hire",
      "Shops",
      "Baggage Services",
      "Parking"
    ],
    "_id": "PHC"
  },
  {
    "iataCode": "KGL",
    "name": "Kigali International Airport",
    "city": "Kigali",
    "state": "Kigali City",
    "country": "Rwanda",
    "latitude": -1.968628,
    "longitude": 30.13945,
    "timezone": "Africa/Kigali",
    "facilities": [
      "Free Wi-Fi",
      "Lounges",
      "Restaurants",
      "Car Rentals",
      "Baggage Claim",
      "Duty-Free Shops"
    ],
    "_id": "KGL"
  },
  {
    "iataCode": "KME",
    "name": "Kamembe Airport",
    "city": "Kamembe",
    "state": "Western Province",
    "country": "Rwanda",
    "latitude": -2.462242,
    "longitude": 28.907048,
    "timezone": "Africa/Kigali",
    "facilities": [
      "Wi-Fi",
      "Basic Lounge",
      "Taxi Services",
      "Cafeteria",
      "Parking",
      "Check-in Counters"
    ],
    "_id": "KME"
  },
  {
    "iataCode": "GAS",
    "name": "Garissa Airport",
    "city": "Garissa",
    "state": "Garissa County",
    "country": "Kenya",
    "latitude": -0.467,
    "longitude": 39.65,
    "timezone": "Africa/Nairobi",
    "facilities": [
      "Taxi Access",
      "Waiting Area",
      "Check-In Counters",
      "Parking",
      "Security Screening",
      "Basic Caf√©"
    ],
    "_id": "GAS"
  },
  {
    "iataCode": "ENU",
    "name": "Akanu Ibiam International Airport",
    "city": "Enugu",
    "state": "Enugu State",
    "country": "Nigeria",
    "latitude": 6.474273,
    "longitude": 7.561961,
    "timezone": "Africa/Lagos",
    "facilities": [
      "Wi-Fi",
      "Lounge",
      "Shops",
      "Baggage Claim",
      "Restaurants",
      "Car Rentals"
    ],
    "_id": "ENU"
  }
]
